$GNRMC,013320.30,A,2809.41058,S,15319.68864,E,0.004,,280221,,,A,V*06

$GNVTG,,T,,M,0.004,N,0.008,K,A*31

$GNGGA,013320.30,2809.41058,S,15319.68864,E,1,12,0.64,142.8,M,36.9,M,,*5D

$GNGSA,A,3,29,18,23,32,26,15,10,20,16,,,,1.14,0.64,0.95,1*0D

$GNGSA,A,3,67,82,69,83,81,68,,,,,,,1.14,0.64,0.95,2*00

$GNGSA,A,3,19,12,04,26,31,33,,,,,,,1.14,0.64,0.95,3*00

$GNGLL,2809.41058,S,15319.68864,E,013320.30,A,A*6A

$GNRMC,013320.40,A,2809.41058,S,15319.68864,E,0.022,,280221,,,A,V*05

$GNVTG,,T,,M,0.022,N,0.041,K,A*38

$GNGGA,013320.40,2809.41058,S,15319.68864,E,1,12,0.64,142.8,M,36.9,M,,*5A

$GNGSA,A,3,29,18,23,32,26,15,10,20,16,,,,1.14,0.64,0.95,1*0D

$GNGSA,A,3,67,82,69,83,81,68,,,,,,,1.14,0.64,0.95,2*00

$GNGSA,A,3,19,12,04,26,31,33,,,,,,,1.14,0.64,0.95,3*00

$GNGLL,2809.41058,S,15319.68864,E,013320.40,A,A*6D

$GNRMC,013320.50,A,2809.41058,S,15319.68864,E,0.005,,280221,,,A,V*01

$GNVTG,,T,,M,0.005,N,0.009,K,A*31

$GNGGA,013320.50,2809.41058,S,15319.68864,E,1,12,0.64,142.8,M,36.9,M,,*5B

$GNGSA,A,3,29,18,23,32,26,15,10,20,16,,,,1.14,0.64,0.95,1*0D

$GNGSA,A,3,67,82,69,83,81,68,,,,,,,1.14,0.64,0.95,2*00

$GNGSA,A,3,19,12,04,26,31,33,,,,,,,1.14,0.64,0.95,3*00

$GNGLL,2809.41058,S,15319.68864,E,013320.50,A,A*6C

$GNRMC,013320.60,A,2809.41058,S,15319.68864,E,0.019,,280221,,,A,V*0F

$GNVTG,,T,,M,0.019,N,0.036,K,A*30

$GNGGA,013320.60,2809.41058,S,15319.68864,E,1,12,0.64,142.8,M,36.9,M,,*58

$GNGSA,A,3,29,18,23,32,26,15,10,20,16,,,,1.14,0.64,0.95,1*0D

$GNGSA,A,3,67,82,69,83,81,68,,,,,,,1.14,0.64,0.95,2*00

$GNGSA,A,3,19,12,04,26,31,33,,,,,,,1.14,0.64,0.95,3*00

$GNGLL,2809.41058,S,15319.68864,E,013320.60,A,A*6F

$GNRMC,013320.70,A,2809.41058,S,15319.68864,E,0.004,,280221,,,A,V*02

$GNVTG,,T,,M,0.004,N,0.008,K,A*31

$GNGGA,013320.70,2809.41058,S,15319.68864,E,1,12,0.64,142.8,M,36.9,M,,*59

$GNGSA,A,3,29,18,23,32,26,15,10,20,16,,,,1.14,0.64,0.95,1*0D

$GNGSA,A,3,67,82,69,83,81,68,,,,,,,1.14,0.64,0.95,2*00

$GNGSA,A,3,19,12,04,26,31,33,,,,,,,1.14,0.64,0.95,3*00

$GNGLL,2809.41058,S,15319.68864,E,013320.70,A,A*6E

$GNRMC,013320.80,A,2809.41058,S,15319.68864,E,0.008,,280221,,,A,V*01

$GNVTG,,T,,M,0.008,N,0.014,K,A*30

$GNGGA,013320.80,2809.41058,S,15319.68864,E,1,12,0.64,142.8,M,36.9,M,,*56

$GNGSA,A,3,29,18,23,32,26,15,10,20,16,,,,1.14,0.64,0.95,1*0D

$GNGSA,A,3,67,82,69,83,81,68,,,,,,,1.14,0.64,0.95,2*00

$GNGSA,A,3,19,12,04,26,31,33,,,,,,,1.14,0.64,0.95,3*00

$GNGLL,2809.41058,S,15319.68864,E,013320.80,A,A*61

$GNRMC,013320.90,A,2809.41058,S,15319.68864,E,0.041,,280221,,,A,V*0D

$GNVTG,,T,,M,0.041,N,0.076,K,A*39

$GNGGA,013320.90,2809.41058,S,15319.68864,E,1,12,0.64,142.8,M,36.9,M,,*57

$GNGSA,A,3,29,18,23,32,26,15,10,20,16,,,,1.14,0.64,0.95,1*0D

$GNGSA,A,3,67,82,69,83,81,68,,,,,,,1.14,0.64,0.95,2*00

$GNGSA,A,3,19,12,04,26,31,33,,,,,,,1.14,0.64,0.95,3*00

$GNGLL,2809.41058,S,15319.68864,E,013320.90,A,A*60

$GNRMC,013321.00,A,2809.41058,S,15319.68864,E,0.035,,280221,,,A,V*06

$GNVTG,,T,,M,0.035,N,0.065,K,A*38

$GNGGA,013321.00,2809.41058,S,15319.68864,E,1,12,0.64,142.8,M,36.9,M,,*5F

$GNGSA,A,3,29,18,23,32,26,15,10,20,16,,,,1.14,0.64,0.95,1*0D

$GNGSA,A,3,67,82,69,83,81,68,,,,,,,1.14,0.64,0.95,2*00

$GNGSA,A,3,19,12,04,26,31,33,,,,,,,1.14,0.64,0.95,3*00

$GNGLL,2809.41058,S,15319.68864,E,013321.00,A,A*68

$GNRMC,013321.10,A,2809.41058,S,15319.68864,E,0.009,,280221,,,A,V*08

$GNVTG,,T,,M,0.009,N,0.016,K,A*33

$GNGGA,013321.10,2809.41058,S,15319.68864,E,1,12,0.64,142.8,M,36.9,M,,*5E

$GNGSA,A,3,29,18,23,32,26,15,10,20,16,,,,1.14,0.64,0.95,1*0D

$GNGSA,A,3,67,82,69,83,81,68,,,,,,,1.14,0.64,0.95,2*00

$GNGSA,A,3,19,12,04,26,31,33,,,,,,,1.14,0.64,0.95,3*00

$GNGLL,2809.41058,S,15319.68864,E,013321.10,A,A*69

$GNRMC,013321.20,A,2809.41058,S,15319.68864,E,0.034,,280221,,,A,V*05

$GNVTG,,T,,M,0.034,N,0.063,K,A*3F

$GNGGA,013321.20,2809.41058,S,15319.68864,E,1,12,0.64,142.8,M,36.9,M,,*5D

$GNGSA,A,3,29,18,23,32,26,15,10,20,16,,,,1.14,0.64,0.95,1*0D

$GNGSA,A,3,67,82,69,83,81,68,,,,,,,1.14,0.64,0.95,2*00

$GNGSA,A,3,19,12,04,26,31,33,,,,,,,1.14,0.64,0.95,3*00

$GNGLL,2809.41058,S,15319.68864,E,013321.20,A,A*6A

$GNRMC,013321.30,A,2809.41058,S,15319.68864,E,0.016,,280221,,,A,V*04

$GNVTG,,T,,M,0.016,N,0.030,K,A*39

$GNGGA,013321.30,2809.41058,S,15319.68864,E,1,12,0.64,142.8,M,36.9,M,,*5C

$GNGSA,A,3,29,18,23,32,26,15,10,20,16,,,,1.14,0.64,0.95,1*0D

$GNGSA,A,3,67,82,69,83,81,68,,,,,,,1.14,0.64,0.95,2*00

$GNGSA,A,3,19,12,04,26,31,33,,,,,,,1.14,0.64,0.95,3*00

$GNGLL,2809.41058,S,15319.68864,E,013321.30,A,A*6B

$GNRMC,013321.40,A,2809.41057,S,15319.68864,E,0.018,,280221,,,A,V*02

$GNVTG,,T,,M,0.018,N,0.034,K,A*33

$GNGGA,013321.40,2809.41057,S,15319.68864,E,1,12,0.64,142.8,M,36.9,M,,*54

$GNGSA,A,3,29,18,23,32,26,15,10,20,16,,,,1.14,0.64,0.95,1*0D

$GNGSA,A,3,67,82,69,83,81,68,,,,,,,1.14,0.64,0.95,2*00

$GNGSA,A,3,19,12,04,26,31,33,,,,,,,1.14,0.64,0.95,3*00

$GNGLL,2809.41057,S,15319.68864,E,013321.40,A,A*63

$GNRMC,013321.50,A,2809.41057,S,15319.68864,E,0.019,,280221,,,A,V*02

$GNVTG,,T,,M,0.019,N,0.036,K,A*30

$GNGGA,013321.50,2809.41057,S,15319.68864,E,1,12,0.64,142.8,M,36.9,M,,*55

$GNGSA,A,3,29,18,23,32,26,15,10,20,16,,,,1.14,0.64,0.95,1*0D

$GNGSA,A,3,67,82,69,83,81,68,,,,,,,1.14,0.64,0.95,2*00

$GNGSA,A,3,19,12,04,26,31,33,,,,,,,1.14,0.64,0.95,3*00

$GNGLL,2809.41057,S,15319.68864,E,013321.50,A,A*62

$GNRMC,013321.60,A,2809.41057,S,15319.68864,E,0.031,,280221,,,A,V*0B

$GNVTG,,T,,M,0.031,N,0.057,K,A*3D

$GNGGA,013321.60,2809.41057,S,15319.68864,E,1,12,0.64,142.8,M,36.9,M,,*56

$GNGSA,A,3,29,18,23,32,26,15,10,20,16,,,,1.14,0.64,0.95,1*0D

$GNGSA,A,3,67,82,69,83,81,68,,,,,,,1.14,0.64,0.95,2*00

$GNGSA,A,3,19,12,04,26,31,33,,,,,,,1.14,0.64,0.95,3*00

$GNGLL,2809.41057,S,15319.68864,E,013321.60,A,A*61

$GNRMC,013321.70,A,2809.41057,S,15319.68864,E,0.017,,280221,,,A,V*0E

$GNVTG,,T,,M,0.017,N,0.031,K,A*39

$GNGGA,013321.70,2809.41057,S,15319.68864,E,1,12,0.64,142.8,M,36.9,M,,*57

$GNGSA,A,3,29,18,23,32,26,15,10,20,16,,,,1.14,0.64,0.95,1*0D

$GNGSA,A,3,67,82,69,83,81,68,,,,,,,1.14,0.64,0.95,2*00

$GNGSA,A,3,19,12,04,26,31,33,,,,,,,1.14,0.64,0.95,3*00

$GNGLL,2809.41057,S,15319.68864,E,013321.70,A,A*60

$GNRMC,013321.80,A,2809.41057,S,15319.68864,E,0.046,,280221,,,A,V*05

$GNVTG,,T,,M,0.046,N,0.085,K,A*32

$GNGGA,013321.80,2809.41057,S,15319.68864,E,1,12,0.64,142.8,M,36.9,M,,*58

$GNGSA,A,3,29,18,23,32,26,15,10,20,16,,,,1.14,0.64,0.95,1*0D

$GNGSA,A,3,67,82,69,83,81,68,,,,,,,1.14,0.64,0.95,2*00

$GNGSA,A,3,19,12,04,26,31,33,,,,,,,1.14,0.64,0.95,3*00

$GNGLL,2809.41057,S,15319.68864,E,013321.80,A,A*6F

$GNRMC,013321.90,A,2809.41057,S,15319.68864,E,0.009,,280221,,,A,V*0F

$GNVTG,,T,,M,0.009,N,0.017,K,A*32

$GNGGA,013321.90,2809.41057,S,15319.68864,E,1,12,0.64,142.8,M,36.9,M,,*59

$GNGSA,A,3,29,18,23,32,26,15,10,20,16,,,,1.14,0.64,0.95,1*0D

$GNGSA,A,3,67,82,69,83,81,68,,,,,,,1.14,0.64,0.95,2*00

$GNGSA,A,3,19,12,04,26,31,33,,,,,,,1.14,0.64,0.95,3*00

$GNGLL,2809.41057,S,15319.68864,E,013321.90,A,A*6E

$GNRMC,013322.00,A,2809.41057,S,15319.68864,E,0.015,,280221,,,A,V*08

$GNVTG,,T,,M,0.015,N,0.027,K,A*3C

$GNGGA,013322.00,2809.41057,S,15319.68864,E,1,12,0.64,142.8,M,36.9,M,,*53

$GNGSA,A,3,29,18,23,32,26,15,10,20,16,,,,1.14,0.64,0.95,1*0D

$GNGSA,A,3,67,82,69,83,81,68,,,,,,,1.14,0.64,0.95,2*00

$GNGSA,A,3,19,12,04,26,31,33,,,,,,,1.14,0.64,0.95,3*00

$GNGLL,2809.41057,S,15319.68864,E,013322.00,A,A*64

$GNRMC,013322.10,A,2809.41057,S,15319.68864,E,0.045,,280221,,,A,V*0C

$GNVTG,,T,,M,0.045,N,0.084,K,A*30

$GNGGA,013322.10,2809.41057,S,15319.68864,E,1,12,0.64,142.8,M,36.9,M,,*52

$GNGSA,A,3,29,18,23,32,26,15,10,20,16,,,,1.14,0.64,0.95,1*0D

$GNGSA,A,3,67,82,69,83,81,68,,,,,,,1.14,0.64,0.95,2*00

$GNGSA,A,3,19,12,04,26,31,33,,,,,,,1.14,0.64,0.95,3*00

$GNGLL,2809.41057,S,15319.68864,E,013322.10,A,A*65

$GNRMC,013322.20,A,2809.41057,S,15319.68864,E,0.027,,280221,,,A,V*0B

$GNVTG,,T,,M,0.027,N,0.051,K,A*3C

$GNGGA,013322.20,2809.41057,S,15319.68864,E,1,12,0.64,142.8,M,36.9,M,,*51

$GNGSA,A,3,29,18,23,32,26,15,10,20,16,,,,1.14,0.64,0.95,1*0D

$GNGSA,A,3,67,82,69,83,81,68,,,,,,,1.14,0.64,0.95,2*00

$GNGSA,A,3,19,12,04,26,31,33,,,,,,,1.14,0.64,0.95,3*00

$GNGLL,2809.41057,S,15319.68864,E,013322.20,A,A*66

$GNRMC,013322.30,A,2809.41057,S,15319.68864,E,0.040,,280221,,,A,V*0B

$GNVTG,,T,,M,0.040,N,0.073,K,A*3D

$GNGGA,013322.30,2809.41057,S,15319.68864,E,1,12,0.64,142.8,M,36.9,M,,*50

$GNGSA,A,3,29,18,23,32,26,15,10,20,16,,,,1.14,0.64,0.95,1*0D

$GNGSA,A,3,67,82,69,83,81,68,,,,,,,1.14,0.64,0.95,2*00

$GNGSA,A,3,19,12,04,26,31,33,,,,,,,1.14,0.64,0.95,3*00

$GNGLL,2809.41057,S,15319.68864,E,013322.30,A,A*67

$GNRMC,013322.40,A,2809.41057,S,15319.68864,E,0.019,,280221,,,A,V*00

$GNVTG,,T,,M,0.019,N,0.035,K,A*33

$GNGGA,013322.40,2809.41057,S,15319.68864,E,1,12,0.64,142.8,M,36.9,M,,*57

$GNGSA,A,3,29,18,23,32,26,15,10,20,16,,,,1.14,0.64,0.95,1*0D

$GNGSA,A,3,67,82,69,83,81,68,,,,,,,1.14,0.64,0.95,2*00

$GNGSA,A,3,19,12,04,26,31,33,,,,,,,1.14,0.64,0.95,3*00

$GNGLL,2809.41057,S,15319.68864,E,013322.40,A,A*60

$GNRMC,013322.50,A,2809.41057,S,15319.68864,E,0.040,,280221,,,A,V*0D

$GNVTG,,T,,M,0.040,N,0.073,K,A*3D

$GNGGA,013322.50,2809.41057,S,15319.68864,E,1,12,0.64,142.8,M,36.9,M,,*56

$GNGSA,A,3,29,18,23,32,26,15,10,20,16,,,,1.14,0.64,0.95,1*0D

$GNGSA,A,3,67,82,69,83,81,68,,,,,,,1.14,0.64,0.95,2*00

$GNGSA,A,3,19,12,04,26,31,33,,,,,,,1.14,0.64,0.95,3*00

$GNGLL,2809.41057,S,15319.68864,E,013322.50,A,A*61

$GNRMC,013322.60,A,2809.41057,S,15319.68864,E,0.011,,280221,,,A,V*0A

$GNVTG,,T,,M,0.011,N,0.021,K,A*3E

$GNGGA,013322.60,2809.41057,S,15319.68864,E,1,12,0.64,142.8,M,36.9,M,,*55

$GNGSA,A,3,29,18,23,32,26,15,10,20,16,,,,1.14,0.64,0.95,1*0D

$GNGSA,A,3,67,82,69,83,81,68,,,,,,,1.14,0.64,0.95,2*00

$GNGSA,A,3,19,12,04,26,31,33,,,,,,,1.14,0.64,0.95,3*00

$GNGLL,2809.41057,S,15319.68864,E,013322.60,A,A*62

$GNRMC,013322.70,A,2809.41057,S,15319.68864,E,0.026,,280221,,,A,V*0F

$GNVTG,,T,,M,0.026,N,0.048,K,A*35

$GNGGA,013322.70,2809.41057,S,15319.68864,E,1,12,0.64,142.8,M,36.9,M,,*54

$GNGSA,A,3,29,18,23,32,26,15,10,20,16,,,,1.14,0.64,0.95,1*0D

$GNGSA,A,3,67,82,69,83,81,68,,,,,,,1.14,0.64,0.95,2*00

$GNGSA,A,3,19,12,04,26,31,33,,,,,,,1.14,0.64,0.95,3*00

$GNGLL,2809.41057,S,15319.68864,E,013322.70,A,A*63

$GNRMC,013322.80,A,2809.41056,S,15319.68864,E,0.020,,280221,,,A,V*07

$GNVTG,,T,,M,0.020,N,0.036,K,A*3A

$GNGGA,013322.80,2809.41056,S,15319.68864,E,1,12,0.64,142.8,M,36.9,M,,*5A

$GNGSA,A,3,29,18,23,32,26,15,10,20,16,,,,1.14,0.64,0.95,1*0D

$GNGSA,A,3,67,82,69,83,81,68,,,,,,,1.14,0.64,0.95,2*00

$GNGSA,A,3,19,12,04,26,31,33,,,,,,,1.14,0.64,0.95,3*00

$GNGLL,2809.41056,S,15319.68864,E,013322.80,A,A*6D

$GNRMC,013322.90,A,2809.41056,S,15319.68864,E,0.036,,280221,,,A,V*01

$GNVTG,,T,,M,0.036,N,0.068,K,A*36

$GNGGA,013322.90,2809.41056,S,15319.68864,E,1,12,0.64,142.8,M,36.9,M,,*5B

$GNGSA,A,3,29,18,23,32,26,15,10,20,16,,,,1.14,0.64,0.95,1*0D

$GNGSA,A,3,67,82,69,83,81,68,,,,,,,1.14,0.64,0.95,2*00

$GNGSA,A,3,19,12,04,26,31,33,,,,,,,1.14,0.64,0.95,3*00

$GNGLL,2809.41056,S,15319.68864,E,013322.90,A,A*6C

$GNRMC,013323.00,A,2809.41056,S,15319.68864,E,0.010,,280221,,,A,V*0D

$GNVTG,,T,,M,0.010,N,0.019,K,A*34

$GNGGA,013323.00,2809.41056,S,15319.68864,E,1,12,0.64,142.8,M,36.9,M,,*53

$GNGSA,A,3,29,18,23,32,26,15,10,20,16,,,,1.14,0.64,0.95,1*0D

$GNGSA,A,3,67,82,69,83,81,68,,,,,,,1.14,0.64,0.95,2*00

$GNGSA,A,3,19,12,04,26,31,33,,,,,,,1.14,0.64,0.95,3*00

$GNGLL,2809.41056,S,15319.68864,E,013323.00,A,A*64

$GNRMC,013323.10,A,2809.41056,S,15319.68864,E,0.018,,280221,,,A,V*04

$GNVTG,,T,,M,0.018,N,0.033,K,A*34

$GNGGA,013323.10,2809.41056,S,15319.68864,E,1,12,0.64,142.8,M,36.9,M,,*52

$GNGSA,A,3,29,18,23,32,26,15,10,20,16,,,,1.14,0.64,0.95,1*0D

$GNGSA,A,3,67,82,69,83,81,68,,,,,,,1.14,0.64,0.95,2*00

$GNGSA,A,3,19,12,04,26,31,33,,,,,,,1.14,0.64,0.95,3*00

$GNGLL,2809.41056,S,15319.68864,E,013323.10,A,A*65

$GNRMC,013323.20,A,2809.41056,S,15319.68864,E,0.028,,280221,,,A,V*04

$GNVTG,,T,,M,0.028,N,0.052,K,A*30

$GNGGA,013323.20,2809.41056,S,15319.68864,E,1,12,0.64,142.8,M,36.9,M,,*51

$GNGSA,A,3,29,18,23,32,26,15,10,20,16,,,,1.14,0.64,0.95,1*0D

$GNGSA,A,3,67,82,69,83,81,68,,,,,,,1.14,0.64,0.95,2*00

$GNGSA,A,3,19,12,04,26,31,33,,,,,,,1.14,0.64,0.95,3*00

$GNGLL,2809.41056,S,15319.68864,E,013323.20,A,A*66

$GNRMC,013323.30,A,2809.41056,S,15319.68864,E,0.104,,280221,,,A,V*0A

$GNVTG,,T,,M,0.104,N,0.192,K,A*32

$GNGGA,013323.30,2809.41056,S,15319.68864,E,1,12,0.64,142.8,M,36.9,M,,*50

$GNGSA,A,3,29,18,23,32,26,15,10,20,16,,,,1.14,0.64,0.95,1*0D

$GNGSA,A,3,67,82,69,83,81,68,,,,,,,1.14,0.64,0.95,2*00

$GNGSA,A,3,19,12,04,26,31,33,,,,,,,1.14,0.64,0.95,3*00

$GNGLL,2809.41056,S,15319.68864,E,013323.30,A,A*67

$GNRMC,013323.40,A,2809.41056,S,15319.68864,E,0.020,,280221,,,A,V*0A

$GNVTG,,T,,M,0.020,N,0.037,K,A*3B

$GNGGA,013323.40,2809.41056,S,15319.68864,E,1,12,0.64,142.8,M,36.9,M,,*57

$GNGSA,A,3,29,18,23,32,26,15,10,20,16,,,,1.14,0.64,0.95,1*0D

$GNGSA,A,3,67,82,69,83,81,68,,,,,,,1.14,0.64,0.95,2*00

$GNGSA,A,3,19,12,04,26,31,33,,,,,,,1.14,0.64,0.95,3*00

$GNGLL,2809.41056,S,15319.68864,E,013323.40,A,A*60

$GNRMC,013323.50,A,2809.41056,S,15319.68864,E,0.026,,280221,,,A,V*0D

$GNVTG,,T,,M,0.026,N,0.048,K,A*35

$GNGGA,013323.50,2809.41056,S,15319.68864,E,1,12,0.64,142.8,M,36.9,M,,*56

$GNGSA,A,3,29,18,23,32,26,15,10,20,16,,,,1.14,0.64,0.95,1*0D

$GNGSA,A,3,67,82,69,83,81,68,,,,,,,1.14,0.64,0.95,2*00

$GNGSA,A,3,19,12,04,26,31,33,,,,,,,1.14,0.64,0.95,3*00

$GNGLL,2809.41056,S,15319.68864,E,013323.50,A,A*61

$GNRMC,013323.60,A,2809.41056,S,15319.68864,E,0.022,,280221,,,A,V*0A

$GNVTG,,T,,M,0.022,N,0.040,K,A*39

$GNGGA,013323.60,2809.41056,S,15319.68864,E,1,12,0.64,142.8,M,36.9,M,,*55

$GNGSA,A,3,29,18,23,32,26,15,10,20,16,,,,1.14,0.64,0.95,1*0D

$GNGSA,A,3,67,82,69,83,81,68,,,,,,,1.14,0.64,0.95,2*00

$GNGSA,A,3,19,12,04,26,31,33,,,,,,,1.14,0.64,0.95,3*00

$GNGLL,2809.41056,S,15319.68864,E,013323.60,A,A*62

$GNRMC,013323.70,A,2809.41055,S,15319.68864,E,0.035,,280221,,,A,V*0E

$GNVTG,,T,,M,0.035,N,0.065,K,A*38

$GNGGA,013323.70,2809.41055,S,15319.68864,E,1,12,0.64,142.8,M,36.9,M,,*57

$GNGSA,A,3,29,18,23,32,26,15,10,20,16,,,,1.14,0.64,0.95,1*0D

$GNGSA,A,3,67,82,69,83,81,68,,,,,,,1.14,0.64,0.95,2*00

$GNGSA,A,3,19,12,04,26,31,33,,,,,,,1.14,0.64,0.95,3*00

$GNGLL,2809.41055,S,15319.68864,E,013323.70,A,A*60

$GNRMC,013323.80,A,2809.41055,S,15319.68864,E,0.028,,280221,,,A,V*0D

$GNVTG,,T,,M,0.028,N,0.051,K,A*33

$GNGGA,013323.80,2809.41055,S,15319.68864,E,1,12,0.64,142.8,M,36.9,M,,*58

$GNGSA,A,3,29,18,23,32,26,15,10,20,16,,,,1.14,0.64,0.95,1*0D

$GNGSA,A,3,67,82,69,83,81,68,,,,,,,1.14,0.64,0.95,2*00

$GNGSA,A,3,19,12,04,26,31,33,,,,,,,1.14,0.64,0.95,3*00

$GNGLL,2809.41055,S,15319.68864,E,013323.80,A,A*6F

$GNRMC,013323.90,A,2809.41055,S,15319.68864,E,0.009,,280221,,,A,V*0F

$GNVTG,,T,,M,0.009,N,0.017,K,A*32

$GNGGA,013323.90,2809.41055,S,15319.68864,E,1,12,0.62,142.8,M,36.9,M,,*5F

$GNGSA,A,3,29,18,23,32,26,15,10,20,16,,,,1.11,0.62,0.93,1*08

$GNGSA,A,3,67,82,69,83,81,68,,,,,,,1.11,0.62,0.93,2*05

$GNGSA,A,3,19,12,04,26,31,33,,,,,,,1.11,0.62,0.93,3*05

$GNGLL,2809.41055,S,15319.68864,E,013323.90,A,A*6E

$GNRMC,013324.00,A,2809.41055,S,15319.68864,E,0.013,,280221,,,A,V*0A

$GNVTG,,T,,M,0.013,N,0.023,K,A*3E

$GNGGA,013324.00,2809.41055,S,15319.68864,E,1,12,0.62,142.8,M,36.9,M,,*51

$GNGSA,A,3,29,18,23,32,26,15,10,20,16,,,,1.11,0.62,0.93,1*08

$GNGSA,A,3,67,82,69,83,81,68,,,,,,,1.11,0.62,0.93,2*05

$GNGSA,A,3,19,12,04,26,31,33,,,,,,,1.11,0.62,0.93,3*05

$GNGLL,2809.41055,S,15319.68864,E,013324.00,A,A*60

$GNRMC,013324.10,A,2809.41055,S,15319.68864,E,0.022,,280221,,,A,V*09

$GNVTG,,T,,M,0.022,N,0.041,K,A*38

$GNGGA,013324.10,2809.41055,S,15319.68864,E,1,12,0.62,142.8,M,36.9,M,,*50

$GNGSA,A,3,29,18,23,32,26,15,10,20,16,,,,1.11,0.62,0.93,1*08

$GNGSA,A,3,67,82,69,83,81,68,,,,,,,1.11,0.62,0.93,2*05

$GNGSA,A,3,19,12,04,26,31,33,,,,,,,1.11,0.62,0.93,3*05

$GNGLL,2809.41055,S,15319.68864,E,013324.10,A,A*61

$GNRMC,013324.20,A,2809.41055,S,15319.68864,E,0.020,,280221,,,A,V*08

$GNVTG,,T,,M,0.020,N,0.036,K,A*3A

$GNGGA,013324.20,2809.41055,S,15319.68864,E,1,12,0.62,142.8,M,36.9,M,,*53

$GNGSA,A,3,29,18,23,32,26,15,10,20,16,,,,1.11,0.62,0.93,1*08

$GNGSA,A,3,67,82,69,83,81,68,,,,,,,1.11,0.62,0.93,2*05

$GNGSA,A,3,19,12,04,26,31,33,,,,,,,1.11,0.62,0.93,3*05

$GNGLL,2809.41055,S,15319.68864,E,013324.20,A,A*62

$GNRMC,013324.30,A,2809.41055,S,15319.68864,E,0.038,,280221,,,A,V*00

$GNVTG,,T,,M,0.038,N,0.070,K,A*31

$GNGGA,013324.30,2809.41055,S,15319.68864,E,1,12,0.62,142.8,M,36.9,M,,*52

$GNGSA,A,3,29,18,23,32,26,15,10,20,16,,,,1.11,0.62,0.93,1*08

$GNGSA,A,3,67,82,69,83,81,68,,,,,,,1.11,0.62,0.93,2*05

$GNGSA,A,3,19,12,04,26,31,33,,,,,,,1.11,0.62,0.93,3*05

$GNGLL,2809.41055,S,15319.68864,E,013324.30,A,A*63

$GNRMC,013324.40,A,2809.41055,S,15319.68864,E,0.012,,280221,,,A,V*0F

$GNVTG,,T,,M,0.012,N,0.021,K,A*3D

$GNGGA,013324.40,2809.41055,S,15319.68864,E,1,12,0.62,142.8,M,36.9,M,,*55

$GNGSA,A,3,29,18,23,32,26,15,10,20,16,,,,1.11,0.62,0.93,1*08

$GNGSA,A,3,67,82,69,83,81,68,,,,,,,1.11,0.62,0.93,2*05

$GNGSA,A,3,19,12,04,26,31,33,,,,,,,1.11,0.62,0.93,3*05

$GNGLL,2809.41055,S,15319.68864,E,013324.40,A,A*64

$GNRMC,013324.50,A,2809.41055,S,15319.68864,E,0.022,,280221,,,A,V*0D

$GNVTG,,T,,M,0.022,N,0.040,K,A*39

$GNGGA,013324.50,2809.41055,S,15319.68864,E,1,12,0.62,142.8,M,36.9,M,,*54

$GNGSA,A,3,29,18,23,32,26,15,10,20,16,,,,1.11,0.62,0.93,1*08

$GNGSA,A,3,67,82,69,83,81,68,,,,,,,1.11,0.62,0.93,2*05

$GNGSA,A,3,19,12,04,26,31,33,,,,,,,1.11,0.62,0.93,3*05

$GNGLL,2809.41055,S,15319.68864,E,013324.50,A,A*65

$GNRMC,013324.60,A,2809.41055,S,15319.68864,E,0.011,,280221,,,A,V*0E

$GNVTG,,T,,M,0.011,N,0.021,K,A*3E

$GNGGA,013324.60,2809.41055,S,15319.68864,E,1,12,0.62,142.8,M,36.9,M,,*57

$GNGSA,A,3,29,18,23,32,26,15,10,20,16,,,,1.11,0.62,0.93,1*08

$GNGSA,A,3,67,82,69,83,81,68,,,,,,,1.11,0.62,0.93,2*05

$GNGSA,A,3,19,12,04,26,31,33,,,,,,,1.11,0.62,0.93,3*05

$GNGLL,2809.41055,S,15319.68864,E,013324.60,A,A*66

$GNRMC,013324.70,A,2809.41055,S,15319.68864,E,0.046,,280221,,,A,V*0D

$GNVTG,,T,,M,0.046,N,0.086,K,A*31

$GNGGA,013324.70,2809.41055,S,15319.68864,E,1,12,0.62,142.8,M,36.9,M,,*56

$GNGSA,A,3,29,18,23,32,26,15,10,20,16,,,,1.11,0.62,0.93,1*08

$GNGSA,A,3,67,82,69,83,81,68,,,,,,,1.11,0.62,0.93,2*05

$GNGSA,A,3,19,12,04,26,31,33,,,,,,,1.11,0.62,0.93,3*05

$GNGLL,2809.41055,S,15319.68864,E,013324.70,A,A*67

$GNRMC,013324.80,A,2809.41055,S,15319.68864,E,0.002,,280221,,,A,V*02

$GNVTG,,T,,M,0.002,N,0.004,K,A*3B

$GNGGA,013324.80,2809.41055,S,15319.68864,E,1,12,0.62,142.8,M,36.9,M,,*59

$GNGSA,A,3,29,18,23,32,26,15,10,20,16,,,,1.11,0.62,0.93,1*08

$GNGSA,A,3,67,82,69,83,81,68,,,,,,,1.11,0.62,0.93,2*05

$GNGSA,A,3,19,12,04,26,31,33,,,,,,,1.11,0.62,0.93,3*05

$GNGLL,2809.41055,S,15319.68864,E,013324.80,A,A*68

$GNRMC,013324.90,A,2809.41055,S,15319.68864,E,0.019,,280221,,,A,V*09

$GNVTG,,T,,M,0.019,N,0.034,K,A*32

$GNGGA,013324.90,2809.41055,S,15319.68864,E,1,12,0.62,142.8,M,36.9,M,,*58

$GNGSA,A,3,29,18,23,32,26,15,10,20,16,,,,1.11,0.62,0.93,1*08

$GNGSA,A,3,67,82,69,83,81,68,,,,,,,1.11,0.62,0.93,2*05

$GNGSA,A,3,19,12,04,26,31,33,,,,,,,1.11,0.62,0.93,3*05

$GNGLL,2809.41055,S,15319.68864,E,013324.90,A,A*69

$GNRMC,013325.00,A,2809.41055,S,15319.68864,E,0.016,,280221,,,A,V*0E

$GNVTG,,T,,M,0.016,N,0.029,K,A*31

$GNGGA,013325.00,2809.41055,S,15319.68864,E,1,12,0.62,142.8,M,36.9,M,,*50

$GNGSA,A,3,29,18,23,32,26,15,10,20,16,,,,1.11,0.62,0.93,1*08

$GNGSA,A,3,67,82,69,83,81,68,,,,,,,1.11,0.62,0.93,2*05

$GNGSA,A,3,19,12,04,26,31,33,,,,,,,1.11,0.62,0.93,3*05

$GNGLL,2809.41055,S,15319.68864,E,013325.00,A,A*61

$GNRMC,013325.10,A,2809.41055,S,15319.68864,E,0.010,,280221,,,A,V*09

$GNVTG,,T,,M,0.010,N,0.018,K,A*35

$GNGGA,013325.10,2809.41055,S,15319.68864,E,1,12,0.62,142.8,M,36.9,M,,*51

$GNGSA,A,3,29,18,23,32,26,15,10,20,16,,,,1.11,0.62,0.93,1*08

$GNGSA,A,3,67,82,69,83,81,68,,,,,,,1.11,0.62,0.93,2*05

$GNGSA,A,3,19,12,04,26,31,33,,,,,,,1.11,0.62,0.93,3*05

$GNGLL,2809.41055,S,15319.68864,E,013325.10,A,A*60

$GNRMC,013325.20,A,2809.41054,S,15319.68864,E,0.017,,280221,,,A,V*0C

$GNVTG,,T,,M,0.017,N,0.031,K,A*39

$GNGGA,013325.20,2809.41054,S,15319.68864,E,1,12,0.62,142.8,M,36.9,M,,*53

$GNGSA,A,3,29,18,23,32,26,15,10,20,16,,,,1.11,0.62,0.93,1*08

$GNGSA,A,3,67,82,69,83,81,68,,,,,,,1.11,0.62,0.93,2*05

$GNGSA,A,3,19,12,04,26,31,33,,,,,,,1.11,0.62,0.93,3*05

$GNGLL,2809.41054,S,15319.68864,E,013325.20,A,A*62

$GNRMC,013325.30,A,2809.41054,S,15319.68864,E,0.007,,280221,,,A,V*0C

$GNVTG,,T,,M,0.007,N,0.013,K,A*38

$GNGGA,013325.30,2809.41054,S,15319.68864,E,1,12,0.62,142.8,M,36.9,M,,*52

$GNGSA,A,3,29,18,23,32,26,15,10,20,16,,,,1.11,0.62,0.93,1*08

$GNGSA,A,3,67,82,69,83,81,68,,,,,,,1.11,0.62,0.93,2*05

$GNGSA,A,3,19,12,04,26,31,33,,,,,,,1.11,0.62,0.93,3*05

$GNGLL,2809.41054,S,15319.68864,E,013325.30,A,A*63

$GNRMC,013325.40,A,2809.41054,S,15319.68864,E,0.026,,280221,,,A,V*08

$GNVTG,,T,,M,0.026,N,0.048,K,A*35

$GNGGA,013325.40,2809.41054,S,15319.68864,E,1,12,0.62,142.9,M,36.9,M,,*54

$GNGSA,A,3,29,18,23,32,26,15,10,20,16,,,,1.11,0.62,0.93,1*08

$GNGSA,A,3,67,82,69,83,81,68,,,,,,,1.11,0.62,0.93,2*05

$GNGSA,A,3,19,12,04,26,31,33,,,,,,,1.11,0.62,0.93,3*05

$GNGLL,2809.41054,S,15319.68864,E,013325.40,A,A*64

$GNRMC,013325.50,A,2809.41054,S,15319.68864,E,0.019,,280221,,,A,V*05

$GNVTG,,T,,M,0.019,N,0.034,K,A*32

$GNGGA,013325.50,2809.41054,S,15319.68864,E,1,12,0.62,142.9,M,36.9,M,,*55

$GNGSA,A,3,29,18,23,32,26,15,10,20,16,,,,1.11,0.62,0.93,1*08

$GNGSA,A,3,67,82,69,83,81,68,,,,,,,1.11,0.62,0.93,2*05

$GNGSA,A,3,19,12,04,26,31,33,,,,,,,1.11,0.62,0.93,3*05

$GNGLL,2809.41054,S,15319.68864,E,013325.50,A,A*65

$GNRMC,013325.60,A,2809.41054,S,15319.68864,E,0.046,,280221,,,A,V*0C

$GNVTG,,T,,M,0.046,N,0.085,K,A*32

$GNGGA,013325.60,2809.41054,S,15319.68864,E,1,12,0.62,142.9,M,36.9,M,,*56

$GNGSA,A,3,29,18,23,32,26,15,10,20,16,,,,1.11,0.62,0.93,1*08

$GNGSA,A,3,67,82,69,83,81,68,,,,,,,1.11,0.62,0.93,2*05

$GNGSA,A,3,19,12,04,26,31,33,,,,,,,1.11,0.62,0.93,3*05

$GNGLL,2809.41054,S,15319.68864,E,013325.60,A,A*66

$GNRMC,013325.70,A,2809.41054,S,15319.68864,E,0.036,,280221,,,A,V*0A

$GNVTG,,T,,M,0.036,N,0.067,K,A*39

$GNGGA,013325.70,2809.41054,S,15319.68864,E,1,12,0.62,142.9,M,36.9,M,,*57

$GNGSA,A,3,29,18,23,32,26,15,10,20,16,,,,1.11,0.62,0.93,1*08

$GNGSA,A,3,67,82,69,83,81,68,,,,,,,1.11,0.62,0.93,2*05

$GNGSA,A,3,19,12,04,26,31,33,,,,,,,1.11,0.62,0.93,3*05

$GNGLL,2809.41054,S,15319.68864,E,013325.70,A,A*67

$GNRMC,013325.80,A,2809.41054,S,15319.68864,E,0.012,,280221,,,A,V*03

$GNVTG,,T,,M,0.012,N,0.022,K,A*3E

$GNGGA,013325.80,2809.41054,S,15319.68864,E,1,12,0.64,142.9,M,36.9,M,,*5E

$GNGSA,A,3,29,18,23,32,26,15,10,20,16,,,,1.14,0.64,0.95,1*0D

$GNGSA,A,3,67,82,69,83,81,68,,,,,,,1.14,0.64,0.95,2*00

$GNGSA,A,3,19,12,04,26,31,33,,,,,,,1.14,0.64,0.95,3*00

$GNGLL,2809.41054,S,15319.68864,E,013325.80,A,A*68

$GNRMC,013325.90,A,2809.41054,S,15319.68864,E,0.026,,280221,,,A,V*05

$GNVTG,,T,,M,0.026,N,0.047,K,A*3A

$GNGGA,013325.90,2809.41054,S,15319.68864,E,1,12,0.64,142.9,M,36.9,M,,*5F

$GNGSA,A,3,29,18,23,32,26,15,10,20,16,,,,1.14,0.64,0.95,1*0D

$GNGSA,A,3,67,82,69,83,81,68,,,,,,,1.14,0.64,0.95,2*00

$GNGSA,A,3,19,12,04,26,31,33,,,,,,,1.14,0.64,0.95,3*00

$GNGLL,2809.41054,S,15319.68864,E,013325.90,A,A*69

$GNRMC,013326.00,A,2809.41053,S,15319.68864,E,0.011,,280221,,,A,V*0C

$GNVTG,,T,,M,0.011,N,0.020,K,A*3F

$GNGGA,013326.00,2809.41053,S,15319.68864,E,1,12,0.64,142.9,M,36.9,M,,*52

$GNGSA,A,3,29,18,23,32,26,15,10,20,16,,,,1.14,0.64,0.95,1*0D

$GNGSA,A,3,67,82,69,83,81,68,,,,,,,1.14,0.64,0.95,2*00

$GNGSA,A,3,19,12,04,26,31,33,,,,,,,1.14,0.64,0.95,3*00

$GNGLL,2809.41053,S,15319.68864,E,013326.00,A,A*64

$GNRMC,013326.10,A,2809.41053,S,15319.68864,E,0.021,,280221,,,A,V*0E

$GNVTG,,T,,M,0.021,N,0.039,K,A*34

$GNGGA,013326.10,2809.41053,S,15319.68864,E,1,12,0.64,142.9,M,36.9,M,,*53

$GNGSA,A,3,29,18,23,32,26,15,10,20,16,,,,1.14,0.64,0.95,1*0D

$GNGSA,A,3,67,82,69,83,81,68,,,,,,,1.14,0.64,0.95,2*00

$GNGSA,A,3,19,12,04,26,31,33,,,,,,,1.14,0.64,0.95,3*00

$GNGLL,2809.41053,S,15319.68864,E,013326.10,A,A*65

$GNRMC,013326.20,A,2809.41053,S,15319.68864,E,0.034,,280221,,,A,V*09

$GNVTG,,T,,M,0.034,N,0.064,K,A*38

$GNGGA,013326.20,2809.41053,S,15319.68864,E,1,12,0.64,142.9,M,36.9,M,,*50

$GNGSA,A,3,29,18,23,32,26,15,10,20,16,,,,1.14,0.64,0.95,1*0D

$GNGSA,A,3,67,82,69,83,81,68,,,,,,,1.14,0.64,0.95,2*00

$GNGSA,A,3,19,12,04,26,31,33,,,,,,,1.14,0.64,0.95,3*00

$GNGLL,2809.41053,S,15319.68864,E,013326.20,A,A*66

$GNRMC,013326.30,A,2809.41053,S,15319.68864,E,0.060,,280221,,,A,V*09

$GNVTG,,T,,M,0.060,N,0.110,K,A*3B

$GNGGA,013326.30,2809.41053,S,15319.68864,E,1,12,0.64,142.9,M,36.9,M,,*51

$GNGSA,A,3,29,18,23,32,26,15,10,20,16,,,,1.14,0.64,0.95,1*0D

$GNGSA,A,3,67,82,69,83,81,68,,,,,,,1.14,0.64,0.95,2*00

$GNGSA,A,3,19,12,04,26,31,33,,,,,,,1.14,0.64,0.95,3*00

$GNGLL,2809.41053,S,15319.68864,E,013326.30,A,A*67

$GNRMC,013326.40,A,2809.41053,S,15319.68864,E,0.021,,280221,,,A,V*0B

$GNVTG,,T,,M,0.021,N,0.039,K,A*34

$GNGGA,013326.40,2809.41053,S,15319.68864,E,1,12,0.64,142.9,M,36.9,M,,*56

$GNGSA,A,3,29,18,23,32,26,15,10,20,16,,,,1.14,0.64,0.95,1*0D

$GNGSA,A,3,67,82,69,83,81,68,,,,,,,1.14,0.64,0.95,2*00

$GNGSA,A,3,19,12,04,26,31,33,,,,,,,1.14,0.64,0.95,3*00

$GNGLL,2809.41053,S,15319.68864,E,013326.40,A,A*60

$GNRMC,013326.50,A,2809.41053,S,15319.68864,E,0.025,,280221,,,A,V*0E

$GNVTG,,T,,M,0.025,N,0.045,K,A*3B

$GNGGA,013326.50,2809.41053,S,15319.68864,E,1,12,0.64,142.9,M,36.9,M,,*57

$GNGSA,A,3,29,18,23,32,26,15,10,20,16,,,,1.14,0.64,0.95,1*0D

$GNGSA,A,3,67,82,69,83,81,68,,,,,,,1.14,0.64,0.95,2*00

$GNGSA,A,3,19,12,04,26,31,33,,,,,,,1.14,0.64,0.95,3*00

$GNGLL,2809.41053,S,15319.68864,E,013326.50,A,A*61

$GNRMC,013326.60,A,2809.41053,S,15319.68864,E,0.017,,280221,,,A,V*0C

$GNVTG,,T,,M,0.017,N,0.031,K,A*39

$GNGGA,013326.60,2809.41053,S,15319.68864,E,1,12,0.64,142.9,M,36.9,M,,*54

$GNGSA,A,3,29,18,23,32,26,15,10,20,16,,,,1.14,0.64,0.95,1*0D

$GNGSA,A,3,67,82,69,83,81,68,,,,,,,1.14,0.64,0.95,2*00

$GNGSA,A,3,19,12,04,26,31,33,,,,,,,1.14,0.64,0.95,3*00

$GNGLL,2809.41053,S,15319.68864,E,013326.60,A,A*62

$GNRMC,013326.70,A,2809.41053,S,15319.68864,E,0.008,,280221,,,A,V*03

$GNVTG,,T,,M,0.008,N,0.015,K,A*31

$GNGGA,013326.70,2809.41053,S,15319.68864,E,1,12,0.64,142.9,M,36.9,M,,*55

$GNGSA,A,3,29,18,23,32,26,15,10,20,16,,,,1.14,0.64,0.95,1*0D

$GNGSA,A,3,67,82,69,83,81,68,,,,,,,1.14,0.64,0.95,2*00

$GNGSA,A,3,19,12,04,26,31,33,,,,,,,1.14,0.64,0.95,3*00

$GNGLL,2809.41053,S,15319.68864,E,013326.70,A,A*63

$GNRMC,013326.80,A,2809.41053,S,15319.68864,E,0.026,,280221,,,A,V*00

$GNVTG,,T,,M,0.026,N,0.048,K,A*35

$GNGGA,013326.80,2809.41053,S,15319.68864,E,1,12,0.64,142.9,M,36.9,M,,*5A

$GNGSA,A,3,29,18,23,32,26,15,10,20,16,,,,1.14,0.64,0.95,1*0D

$GNGSA,A,3,67,82,69,83,81,68,,,,,,,1.14,0.64,0.95,2*00

$GNGSA,A,3,19,12,04,26,31,33,,,,,,,1.14,0.64,0.95,3*00

$GNGLL,2809.41053,S,15319.68864,E,013326.80,A,A*6C

$GNRMC,013326.90,A,2809.41053,S,15319.68864,E,0.037,,280221,,,A,V*01

$GNVTG,,T,,M,0.037,N,0.069,K,A*36

$GNGGA,013326.90,2809.41053,S,15319.68864,E,1,12,0.64,142.9,M,36.9,M,,*5B

$GNGSA,A,3,29,18,23,32,26,15,10,20,16,,,,1.14,0.64,0.95,1*0D

$GNGSA,A,3,67,82,69,83,81,68,,,,,,,1.14,0.64,0.95,2*00

$GNGSA,A,3,19,12,04,26,31,33,,,,,,,1.14,0.64,0.95,3*00

$GNGLL,2809.41053,S,15319.68864,E,013326.90,A,A*6D

$GNRMC,013327.00,A,2809.41053,S,15319.68864,E,0.002,,280221,,,A,V*0F

$GNVTG,,T,,M,0.002,N,0.005,K,A*3A

$GNGGA,013327.00,2809.41053,S,15319.68864,E,1,12,0.64,142.9,M,36.9,M,,*53

$GNGSA,A,3,29,18,23,32,26,15,10,20,16,,,,1.14,0.64,0.95,1*0D

$GNGSA,A,3,67,82,69,83,81,68,,,,,,,1.14,0.64,0.95,2*00

$GNGSA,A,3,19,12,04,26,31,33,,,,,,,1.14,0.64,0.95,3*00

$GNGLL,2809.41053,S,15319.68864,E,013327.00,A,A*65

$GNRMC,013327.10,A,2809.41053,S,15319.68864,E,0.020,,280221,,,A,V*0E

$GNVTG,,T,,M,0.020,N,0.036,K,A*3A

$GNGGA,013327.10,2809.41053,S,15319.68864,E,1,12,0.64,142.9,M,36.9,M,,*52

$GNGSA,A,3,29,18,23,32,15,10,20,16,,,,,1.14,0.64,0.95,1*09

$GNGSA,A,3,67,82,69,83,81,68,,,,,,,1.14,0.64,0.95,2*00

$GNGSA,A,3,19,12,04,26,31,33,,,,,,,1.14,0.64,0.95,3*00

$GNGLL,2809.41053,S,15319.68864,E,013327.10,A,A*64

$GNRMC,013327.20,A,2809.41053,S,15319.68864,E,0.015,,280221,,,A,V*0B

$GNVTG,,T,,M,0.015,N,0.028,K,A*33

$GNGGA,013327.20,2809.41053,S,15319.68864,E,1,12,0.64,142.9,M,36.9,M,,*51

$GNGSA,A,3,29,18,23,32,15,10,20,16,,,,,1.14,0.64,0.95,1*09

$GNGSA,A,3,67,82,69,83,81,68,,,,,,,1.14,0.64,0.95,2*00

$GNGSA,A,3,19,12,04,26,31,33,,,,,,,1.14,0.64,0.95,3*00

$GNGLL,2809.41053,S,15319.68864,E,013327.20,A,A*67

$GNRMC,013327.30,A,2809.41053,S,15319.68864,E,0.010,,280221,,,A,V*0F

$GNVTG,,T,,M,0.010,N,0.019,K,A*34

$GNGGA,013327.30,2809.41053,S,15319.68864,E,1,12,0.64,142.9,M,36.9,M,,*50

$GNGSA,A,3,29,18,23,32,15,10,20,16,,,,,1.14,0.64,0.95,1*09

$GNGSA,A,3,67,82,69,83,81,68,,,,,,,1.14,0.64,0.95,2*00

$GNGSA,A,3,19,12,04,26,31,33,,,,,,,1.14,0.64,0.95,3*00

$GNGLL,2809.41053,S,15319.68864,E,013327.30,A,A*66

$GNRMC,013327.40,A,2809.41053,S,15319.68864,E,0.005,,280221,,,A,V*0C

$GNVTG,,T,,M,0.005,N,0.010,K,A*39

$GNGGA,013327.40,2809.41053,S,15319.68864,E,1,12,0.64,142.9,M,36.9,M,,*57

$GNGSA,A,3,29,18,23,32,15,10,20,16,,,,,1.14,0.64,0.95,1*09

$GNGSA,A,3,67,82,69,83,81,68,,,,,,,1.14,0.64,0.95,2*00

$GNGSA,A,3,19,12,04,26,31,33,,,,,,,1.14,0.64,0.95,3*00

$GNGLL,2809.41053,S,15319.68864,E,013327.40,A,A*61

$GNRMC,013327.50,A,2809.41053,S,15319.68864,E,0.048,,280221,,,A,V*04

$GNVTG,,T,,M,0.048,N,0.088,K,A*31

$GNGGA,013327.50,2809.41053,S,15319.68864,E,1,12,0.64,142.9,M,36.9,M,,*56

$GNGSA,A,3,29,18,23,32,15,10,20,16,,,,,1.14,0.64,0.95,1*09

$GNGSA,A,3,67,82,69,83,81,68,,,,,,,1.14,0.64,0.95,2*00

$GNGSA,A,3,19,12,04,26,31,33,,,,,,,1.14,0.64,0.95,3*00

$GNGLL,2809.41053,S,15319.68864,E,013327.50,A,A*60

$GNRMC,013327.60,A,2809.41053,S,15319.68864,E,0.035,,280221,,,A,V*0D

$GNVTG,,T,,M,0.035,N,0.066,K,A*3B

$GNGGA,013327.60,2809.41053,S,15319.68864,E,1,12,0.64,142.9,M,36.9,M,,*55

$GNGSA,A,3,29,18,23,32,15,10,20,16,,,,,1.14,0.64,0.95,1*09

$GNGSA,A,3,67,82,69,83,81,68,,,,,,,1.14,0.64,0.95,2*00

$GNGSA,A,3,19,12,04,26,31,33,,,,,,,1.14,0.64,0.95,3*00

$GNGLL,2809.41053,S,15319.68864,E,013327.60,A,A*63

$GNRMC,013327.70,A,2809.41053,S,15319.68864,E,0.023,,280221,,,A,V*0B

$GNVTG,,T,,M,0.023,N,0.042,K,A*3A

$GNGGA,013327.70,2809.41053,S,15319.68864,E,1,12,0.64,142.9,M,36.9,M,,*54

$GNGSA,A,3,29,18,23,32,15,10,20,16,,,,,1.14,0.64,0.95,1*09

$GNGSA,A,3,67,82,69,83,81,68,,,,,,,1.14,0.64,0.95,2*00

$GNGSA,A,3,19,12,04,26,31,33,,,,,,,1.14,0.64,0.95,3*00

$GNGLL,2809.41053,S,15319.68864,E,013327.70,A,A*62

