$GNRMC,050053.00,A,2809.41092,S,15319.68778,E,0.028,,280221,,,A,V*0F

$GNVTG,,T,,M,0.028,N,0.051,K,A*33

$GNGGA,050053.00,2809.41092,S,15319.68778,E,1,12,0.57,143.6,M,36.9,M,,*55

$GNGSA,A,3,20,08,31,23,32,21,27,10,,,,,1.18,0.57,1.04,1*01

$GNGSA,A,3,85,79,69,70,83,84,,,,,,,1.18,0.57,1.04,2*01

$GNGSA,A,3,19,12,04,09,11,,,,,,,,1.18,0.57,1.04,3*0A

$GNGLL,2809.41092,S,15319.68778,E,050053.00,A,A*6D

$GNRMC,050053.10,A,2809.41092,S,15319.68778,E,0.025,,280221,,,A,V*03

$GNVTG,,T,,M,0.025,N,0.047,K,A*39

$GNGGA,050053.10,2809.41092,S,15319.68778,E,1,12,0.57,143.6,M,36.9,M,,*54

$GNGSA,A,3,20,08,31,23,32,21,27,10,,,,,1.18,0.57,1.04,1*01

$GNGSA,A,3,85,79,69,70,83,84,,,,,,,1.18,0.57,1.04,2*01

$GNGSA,A,3,19,12,04,09,11,,,,,,,,1.18,0.57,1.04,3*0A

$GNGLL,2809.41092,S,15319.68778,E,050053.10,A,A*6C

$GNRMC,050053.20,A,2809.41092,S,15319.68777,E,0.024,,280221,,,A,V*0E

$GNVTG,,T,,M,0.024,N,0.045,K,A*3A

$GNGGA,050053.20,2809.41092,S,15319.68777,E,1,12,0.57,143.6,M,36.9,M,,*58

$GNGSA,A,3,20,08,31,23,32,21,27,10,,,,,1.18,0.57,1.04,1*01

$GNGSA,A,3,85,79,69,70,83,84,,,,,,,1.18,0.57,1.04,2*01

$GNGSA,A,3,19,12,04,09,11,,,,,,,,1.18,0.57,1.04,3*0A

$GNGLL,2809.41092,S,15319.68777,E,050053.20,A,A*60

$GNRMC,050053.30,A,2809.41092,S,15319.68777,E,0.022,,280221,,,A,V*09

$GNVTG,,T,,M,0.022,N,0.040,K,A*39

$GNGGA,050053.30,2809.41092,S,15319.68777,E,1,12,0.57,143.6,M,36.9,M,,*59

$GNGSA,A,3,20,08,31,23,32,21,27,10,,,,,1.18,0.57,1.04,1*01

$GNGSA,A,3,85,79,69,70,83,84,,,,,,,1.18,0.57,1.04,2*01

$GNGSA,A,3,19,12,04,09,11,,,,,,,,1.18,0.57,1.04,3*0A

$GNGLL,2809.41092,S,15319.68777,E,050053.30,A,A*61

$GNRMC,050053.40,A,2809.41092,S,15319.68777,E,0.027,,280221,,,A,V*0B

$GNVTG,,T,,M,0.027,N,0.049,K,A*35

$GNGGA,050053.40,2809.41092,S,15319.68777,E,1,12,0.57,143.6,M,36.9,M,,*5E

$GNGSA,A,3,20,08,31,23,32,21,27,10,,,,,1.18,0.57,1.04,1*01

$GNGSA,A,3,85,79,69,70,83,84,,,,,,,1.18,0.57,1.04,2*01

$GNGSA,A,3,19,12,04,09,11,,,,,,,,1.18,0.57,1.04,3*0A

$GNGLL,2809.41092,S,15319.68777,E,050053.40,A,A*66

$GNRMC,050053.50,A,2809.41092,S,15319.68776,E,0.035,,280221,,,A,V*08

$GNVTG,,T,,M,0.035,N,0.064,K,A*39

$GNGGA,050053.50,2809.41092,S,15319.68776,E,1,12,0.57,143.6,M,36.9,M,,*5E

$GNGSA,A,3,20,08,31,23,32,21,27,10,,,,,1.18,0.57,1.04,1*01

$GNGSA,A,3,85,79,69,70,83,84,,,,,,,1.18,0.57,1.04,2*01

$GNGSA,A,3,19,12,04,09,11,,,,,,,,1.18,0.57,1.04,3*0A

$GNGLL,2809.41092,S,15319.68776,E,050053.50,A,A*66

$GNRMC,050053.60,A,2809.41092,S,15319.68776,E,0.074,,280221,,,A,V*0E

$GNVTG,,T,,M,0.074,N,0.137,K,A*3B

$GNGGA,050053.60,2809.41092,S,15319.68776,E,1,12,0.57,143.6,M,36.9,M,,*5D

$GNGSA,A,3,20,08,31,23,32,21,27,10,,,,,1.18,0.57,1.04,1*01

$GNGSA,A,3,85,79,69,70,83,84,,,,,,,1.18,0.57,1.04,2*01

$GNGSA,A,3,19,12,04,09,11,,,,,,,,1.18,0.57,1.04,3*0A

$GNGLL,2809.41092,S,15319.68776,E,050053.60,A,A*65

$GNRMC,050053.70,A,2809.41092,S,15319.68776,E,0.052,,280221,,,A,V*0B

$GNVTG,,T,,M,0.052,N,0.096,K,A*35

$GNGGA,050053.70,2809.41092,S,15319.68776,E,1,12,0.57,143.6,M,36.9,M,,*5C

$GNGSA,A,3,20,08,31,23,32,21,27,10,,,,,1.18,0.57,1.04,1*01

$GNGSA,A,3,85,79,69,70,83,84,,,,,,,1.18,0.57,1.04,2*01

$GNGSA,A,3,19,12,04,09,11,,,,,,,,1.18,0.57,1.04,3*0A

$GNGLL,2809.41092,S,15319.68776,E,050053.70,A,A*64

$GNRMC,050053.80,A,2809.41092,S,15319.68776,E,0.018,,280221,,,A,V*0A

$GNVTG,,T,,M,0.018,N,0.034,K,A*33

$GNGGA,050053.80,2809.41092,S,15319.68776,E,1,12,0.57,143.7,M,36.9,M,,*52

$GNGSA,A,3,20,08,31,23,32,21,27,10,,,,,1.18,0.57,1.04,1*01

$GNGSA,A,3,85,79,69,70,83,84,,,,,,,1.18,0.57,1.04,2*01

$GNGSA,A,3,19,12,04,09,11,,,,,,,,1.18,0.57,1.04,3*0A

$GNGLL,2809.41092,S,15319.68776,E,050053.80,A,A*6B

$GNRMC,050053.90,A,2809.41092,S,15319.68775,E,0.028,,280221,,,A,V*0B

$GNVTG,,T,,M,0.028,N,0.052,K,A*30

$GNGGA,050053.90,2809.41092,S,15319.68775,E,1,12,0.57,143.7,M,36.9,M,,*50

$GNGSA,A,3,20,08,31,23,32,21,27,10,,,,,1.18,0.57,1.04,1*01

$GNGSA,A,3,85,79,69,70,83,84,,,,,,,1.18,0.57,1.04,2*01

$GNGSA,A,3,19,12,04,09,11,,,,,,,,1.18,0.57,1.04,3*0A

$GNGLL,2809.41092,S,15319.68775,E,050053.90,A,A*69

$GNRMC,050054.00,A,2809.41092,S,15319.68775,E,0.022,,280221,,,A,V*0F

$GNVTG,,T,,M,0.022,N,0.041,K,A*38

$GNGGA,050054.00,2809.41092,S,15319.68775,E,1,12,0.57,143.7,M,36.9,M,,*5E

$GNGSA,A,3,20,08,31,23,32,21,27,10,,,,,1.18,0.57,1.04,1*01

$GNGSA,A,3,85,79,69,70,83,84,,,,,,,1.18,0.57,1.04,2*01

$GNGSA,A,3,19,12,04,09,11,,,,,,,,1.18,0.57,1.04,3*0A

$GNGLL,2809.41092,S,15319.68775,E,050054.00,A,A*67

$GNRMC,050054.10,A,2809.41092,S,15319.68775,E,0.021,,280221,,,A,V*0D

$GNVTG,,T,,M,0.021,N,0.038,K,A*35

$GNGGA,050054.10,2809.41092,S,15319.68775,E,1,12,0.57,143.7,M,36.9,M,,*5F

$GNGSA,A,3,20,08,31,23,32,21,27,10,,,,,1.18,0.57,1.04,1*01

$GNGSA,A,3,85,79,69,70,83,84,,,,,,,1.18,0.57,1.04,2*01

$GNGSA,A,3,19,12,04,09,11,,,,,,,,1.18,0.57,1.04,3*0A

$GNGLL,2809.41092,S,15319.68775,E,050054.10,A,A*66

$GNRMC,050054.20,A,2809.41092,S,15319.68774,E,0.024,,280221,,,A,V*0A

$GNVTG,,T,,M,0.024,N,0.045,K,A*3A

$GNGGA,050054.20,2809.41092,S,15319.68774,E,1,12,0.57,143.7,M,36.9,M,,*5D

$GNGSA,A,3,20,08,31,23,32,21,27,10,,,,,1.18,0.57,1.04,1*01

$GNGSA,A,3,85,79,69,70,83,84,,,,,,,1.18,0.57,1.04,2*01

$GNGSA,A,3,19,12,04,09,11,,,,,,,,1.18,0.57,1.04,3*0A

$GNGLL,2809.41092,S,15319.68774,E,050054.20,A,A*64

$GNRMC,050054.30,A,2809.41092,S,15319.68774,E,0.038,,280221,,,A,V*06

$GNVTG,,T,,M,0.038,N,0.070,K,A*31

$GNGGA,050054.30,2809.41092,S,15319.68774,E,1,12,0.57,143.7,M,36.9,M,,*5C

$GNGSA,A,3,20,08,31,23,32,21,27,10,,,,,1.18,0.57,1.04,1*01

$GNGSA,A,3,85,79,69,70,83,84,,,,,,,1.18,0.57,1.04,2*01

$GNGSA,A,3,19,12,04,09,11,,,,,,,,1.18,0.57,1.04,3*0A

$GNGLL,2809.41092,S,15319.68774,E,050054.30,A,A*65

$GNRMC,050054.40,A,2809.41092,S,15319.68774,E,0.013,,280221,,,A,V*08

$GNVTG,,T,,M,0.013,N,0.023,K,A*3E

$GNGGA,050054.40,2809.41092,S,15319.68774,E,1,12,0.57,143.7,M,36.9,M,,*5B

$GNGSA,A,3,20,08,31,23,32,21,27,10,,,,,1.18,0.57,1.04,1*01

$GNGSA,A,3,85,79,69,70,83,84,,,,,,,1.18,0.57,1.04,2*01

$GNGSA,A,3,19,12,04,09,11,,,,,,,,1.18,0.57,1.04,3*0A

$GNGLL,2809.41092,S,15319.68774,E,050054.40,A,A*62

$GNRMC,050054.50,A,2809.41092,S,15319.68774,E,0.020,,280221,,,A,V*09

$GNVTG,,T,,M,0.020,N,0.036,K,A*3A

$GNGGA,050054.50,2809.41092,S,15319.68774,E,1,12,0.57,143.7,M,36.9,M,,*5A

$GNGSA,A,3,20,08,31,23,32,21,27,10,,,,,1.18,0.57,1.04,1*01

$GNGSA,A,3,85,79,69,70,83,84,,,,,,,1.18,0.57,1.04,2*01

$GNGSA,A,3,19,12,04,09,11,,,,,,,,1.18,0.57,1.04,3*0A

$GNGLL,2809.41092,S,15319.68774,E,050054.50,A,A*63

$GNRMC,050054.60,A,2809.41092,S,15319.68773,E,0.029,,280221,,,A,V*04

$GNVTG,,T,,M,0.029,N,0.054,K,A*37

$GNGGA,050054.60,2809.41092,S,15319.68773,E,1,12,0.57,143.7,M,36.9,M,,*5E

$GNGSA,A,3,20,08,31,23,32,21,27,10,,,,,1.18,0.57,1.04,1*01

$GNGSA,A,3,85,79,69,70,83,84,,,,,,,1.18,0.57,1.04,2*01

$GNGSA,A,3,19,12,04,09,11,,,,,,,,1.18,0.57,1.04,3*0A

$GNGLL,2809.41092,S,15319.68773,E,050054.60,A,A*67

$GNRMC,050054.70,A,2809.41092,S,15319.68773,E,0.012,,280221,,,A,V*0D

$GNVTG,,T,,M,0.012,N,0.022,K,A*3E

$GNGGA,050054.70,2809.41092,S,15319.68773,E,1,12,0.57,143.7,M,36.9,M,,*5F

$GNGSA,A,3,20,08,31,23,32,21,27,10,,,,,1.18,0.57,1.04,1*01

$GNGSA,A,3,85,79,69,70,83,84,,,,,,,1.18,0.57,1.04,2*01

$GNGSA,A,3,19,12,04,09,11,,,,,,,,1.18,0.57,1.04,3*0A

$GNGLL,2809.41092,S,15319.68773,E,050054.70,A,A*66

$GNRMC,050054.80,A,2809.41092,S,15319.68773,E,0.018,,280221,,,A,V*08

$GNVTG,,T,,M,0.018,N,0.033,K,A*34

$GNGGA,050054.80,2809.41092,S,15319.68773,E,1,12,0.57,143.7,M,36.9,M,,*50

$GNGSA,A,3,20,08,31,23,32,21,27,10,,,,,1.18,0.57,1.04,1*01

$GNGSA,A,3,85,79,69,70,83,84,,,,,,,1.18,0.57,1.04,2*01

$GNGSA,A,3,19,12,04,09,11,,,,,,,,1.18,0.57,1.04,3*0A

$GNGLL,2809.41092,S,15319.68773,E,050054.80,A,A*69

$GNRMC,050054.90,A,2809.41092,S,15319.68772,E,0.010,,280221,,,A,V*00

$GNVTG,,T,,M,0.010,N,0.019,K,A*34

$GNGGA,050054.90,2809.41092,S,15319.68772,E,1,12,0.57,143.7,M,36.9,M,,*50

$GNGSA,A,3,20,08,31,23,32,21,27,10,,,,,1.18,0.57,1.04,1*01

$GNGSA,A,3,85,79,69,70,83,84,,,,,,,1.18,0.57,1.04,2*01

$GNGSA,A,3,19,12,04,09,11,,,,,,,,1.18,0.57,1.04,3*0A

$GNGLL,2809.41092,S,15319.68772,E,050054.90,A,A*69

$GNRMC,050055.00,A,2809.41092,S,15319.68772,E,0.009,,280221,,,A,V*00

$GNVTG,,T,,M,0.009,N,0.017,K,A*32

$GNGGA,050055.00,2809.41092,S,15319.68772,E,1,12,0.57,143.7,M,36.9,M,,*58

$GNGSA,A,3,20,08,31,23,32,21,27,10,,,,,1.18,0.57,1.04,1*01

$GNGSA,A,3,85,79,69,70,83,84,,,,,,,1.18,0.57,1.04,2*01

$GNGSA,A,3,19,12,04,09,11,,,,,,,,1.18,0.57,1.04,3*0A

$GNGLL,2809.41092,S,15319.68772,E,050055.00,A,A*61

$GNRMC,050055.10,A,2809.41092,S,15319.68772,E,0.030,,280221,,,A,V*0B

$GNVTG,,T,,M,0.030,N,0.056,K,A*3D

$GNGGA,050055.10,2809.41092,S,15319.68772,E,1,12,0.57,143.7,M,36.9,M,,*59

$GNGSA,A,3,20,08,31,23,32,21,27,10,,,,,1.18,0.57,1.04,1*01

$GNGSA,A,3,85,79,69,70,83,84,,,,,,,1.18,0.57,1.04,2*01

$GNGSA,A,3,19,12,04,09,11,,,,,,,,1.18,0.57,1.04,3*0A

$GNGLL,2809.41092,S,15319.68772,E,050055.10,A,A*60

$GNRMC,050055.20,A,2809.41092,S,15319.68772,E,0.024,,280221,,,A,V*0D

$GNVTG,,T,,M,0.024,N,0.044,K,A*3B

$GNGGA,050055.20,2809.41092,S,15319.68772,E,1,12,0.57,143.7,M,36.9,M,,*5A

$GNGSA,A,3,20,08,31,23,32,21,27,10,,,,,1.18,0.57,1.04,1*01

$GNGSA,A,3,85,79,69,70,83,84,,,,,,,1.18,0.57,1.04,2*01

$GNGSA,A,3,19,12,04,09,11,,,,,,,,1.18,0.57,1.04,3*0A

$GNGLL,2809.41092,S,15319.68772,E,050055.20,A,A*63

$GNRMC,050055.30,A,2809.41092,S,15319.68771,E,0.059,,280221,,,A,V*05

$GNVTG,,T,,M,0.059,N,0.109,K,A*39

$GNGGA,050055.30,2809.41092,S,15319.68771,E,1,12,0.57,143.7,M,36.9,M,,*58

$GNGSA,A,3,20,08,31,23,32,21,27,10,,,,,1.18,0.57,1.04,1*01

$GNGSA,A,3,85,79,69,70,83,84,,,,,,,1.18,0.57,1.04,2*01

$GNGSA,A,3,19,12,04,09,11,,,,,,,,1.18,0.57,1.04,3*0A

$GNGLL,2809.41092,S,15319.68771,E,050055.30,A,A*61

$GNRMC,050055.40,A,2809.41093,S,15319.68771,E,0.012,,280221,,,A,V*0C

$GNVTG,,T,,M,0.012,N,0.023,K,A*3F

$GNGGA,050055.40,2809.41093,S,15319.68771,E,1,12,0.57,143.7,M,36.9,M,,*5E

$GNGSA,A,3,20,08,31,23,32,21,27,10,,,,,1.18,0.57,1.04,1*01

$GNGSA,A,3,85,79,69,70,83,84,,,,,,,1.18,0.57,1.04,2*01

$GNGSA,A,3,19,12,04,09,11,,,,,,,,1.18,0.57,1.04,3*0A

$GNGLL,2809.41093,S,15319.68771,E,050055.40,A,A*67

$GNRMC,050055.50,A,2809.41093,S,15319.68771,E,0.078,,280221,,,A,V*01

$GNVTG,,T,,M,0.078,N,0.144,K,A*33

$GNGGA,050055.50,2809.41093,S,15319.68771,E,1,12,0.57,143.7,M,36.9,M,,*5F

$GNGSA,A,3,20,08,31,23,32,21,27,10,,,,,1.18,0.57,1.04,1*01

$GNGSA,A,3,85,79,69,70,83,84,,,,,,,1.18,0.57,1.04,2*01

$GNGSA,A,3,19,12,04,09,11,,,,,,,,1.18,0.57,1.04,3*0A

$GNGLL,2809.41093,S,15319.68771,E,050055.50,A,A*66

$GNRMC,050055.60,A,2809.41093,S,15319.68770,E,0.039,,280221,,,A,V*06

$GNVTG,,T,,M,0.039,N,0.073,K,A*33

$GNGGA,050055.60,2809.41093,S,15319.68770,E,1,12,0.57,143.7,M,36.9,M,,*5D

$GNGSA,A,3,20,08,31,23,32,21,27,10,,,,,1.18,0.57,1.04,1*01

$GNGSA,A,3,85,79,69,70,83,84,,,,,,,1.18,0.57,1.04,2*01

$GNGSA,A,3,19,12,04,09,11,,,,,,,,1.18,0.57,1.04,3*0A

$GNGLL,2809.41093,S,15319.68770,E,050055.60,A,A*64

$GNRMC,050055.70,A,2809.41093,S,15319.68770,E,0.037,,280221,,,A,V*09

$GNVTG,,T,,M,0.037,N,0.069,K,A*36

$GNGGA,050055.70,2809.41093,S,15319.68770,E,1,12,0.57,143.7,M,36.9,M,,*5C

$GNGSA,A,3,20,08,31,23,32,21,27,10,,,,,1.18,0.57,1.04,1*01

$GNGSA,A,3,85,79,69,70,83,84,,,,,,,1.18,0.57,1.04,2*01

$GNGSA,A,3,19,12,04,09,11,,,,,,,,1.18,0.57,1.04,3*0A

$GNGLL,2809.41093,S,15319.68770,E,050055.70,A,A*65

$GNRMC,050055.80,A,2809.41093,S,15319.68770,E,0.031,,280221,,,A,V*00

$GNVTG,,T,,M,0.031,N,0.057,K,A*3D

$GNGGA,050055.80,2809.41093,S,15319.68770,E,1,12,0.57,143.7,M,36.9,M,,*53

$GNGSA,A,3,20,08,31,23,32,21,27,10,,,,,1.18,0.57,1.04,1*01

$GNGSA,A,3,85,79,69,70,83,84,,,,,,,1.18,0.57,1.04,2*01

$GNGSA,A,3,19,12,04,09,11,,,,,,,,1.18,0.57,1.04,3*0A

$GNGLL,2809.41093,S,15319.68770,E,050055.80,A,A*6A

$GNRMC,050055.90,A,2809.41093,S,15319.68769,E,0.018,,280221,,,A,V*02

$GNVTG,,T,,M,0.018,N,0.034,K,A*33

$GNGGA,050055.90,2809.41093,S,15319.68769,E,1,12,0.57,143.7,M,36.9,M,,*5A

$GNGSA,A,3,20,08,31,23,32,21,27,10,,,,,1.18,0.57,1.04,1*01

$GNGSA,A,3,85,79,69,70,83,84,,,,,,,1.18,0.57,1.04,2*01

$GNGSA,A,3,19,12,04,09,11,,,,,,,,1.18,0.57,1.04,3*0A

$GNGLL,2809.41093,S,15319.68769,E,050055.90,A,A*63

$GNRMC,050056.00,A,2809.41093,S,15319.68769,E,0.018,,280221,,,A,V*08

$GNVTG,,T,,M,0.018,N,0.033,K,A*34

$GNGGA,050056.00,2809.41093,S,15319.68769,E,1,12,0.57,143.7,M,36.9,M,,*50

$GNGSA,A,3,20,08,31,23,32,21,27,10,,,,,1.18,0.57,1.04,1*01

$GNGSA,A,3,85,79,69,70,83,84,,,,,,,1.18,0.57,1.04,2*01

$GNGSA,A,3,19,12,04,09,11,,,,,,,,1.18,0.57,1.04,3*0A

$GNGLL,2809.41093,S,15319.68769,E,050056.00,A,A*69

$GNRMC,050056.10,A,2809.41093,S,15319.68769,E,0.035,,280221,,,A,V*06

$GNVTG,,T,,M,0.035,N,0.064,K,A*39

$GNGGA,050056.10,2809.41093,S,15319.68769,E,1,12,0.57,143.7,M,36.9,M,,*51

$GNGSA,A,3,20,08,31,23,32,21,27,10,,,,,1.18,0.57,1.04,1*01

$GNGSA,A,3,85,79,69,70,83,84,,,,,,,1.18,0.57,1.04,2*01

$GNGSA,A,3,19,12,04,09,11,,,,,,,,1.18,0.57,1.04,3*0A

$GNGLL,2809.41093,S,15319.68769,E,050056.10,A,A*68

$GNRMC,050056.20,A,2809.41093,S,15319.68769,E,0.030,,280221,,,A,V*00

$GNVTG,,T,,M,0.030,N,0.056,K,A*3D

$GNGGA,050056.20,2809.41093,S,15319.68769,E,1,12,0.57,143.7,M,36.9,M,,*52

$GNGSA,A,3,20,08,31,23,32,21,27,10,,,,,1.18,0.57,1.04,1*01

$GNGSA,A,3,85,79,69,70,83,84,,,,,,,1.18,0.57,1.04,2*01

$GNGSA,A,3,19,12,04,09,11,,,,,,,,1.18,0.57,1.04,3*0A

$GNGLL,2809.41093,S,15319.68769,E,050056.20,A,A*6B

$GNRMC,050056.30,A,2809.41093,S,15319.68768,E,0.040,,280221,,,A,V*07

$GNVTG,,T,,M,0.040,N,0.074,K,A*3A

$GNGGA,050056.30,2809.41093,S,15319.68768,E,1,12,0.57,143.7,M,36.9,M,,*52

$GNGSA,A,3,20,08,31,23,32,21,27,10,,,,,1.18,0.57,1.04,1*01

$GNGSA,A,3,85,79,69,70,83,84,,,,,,,1.18,0.57,1.04,2*01

$GNGSA,A,3,19,12,04,09,11,,,,,,,,1.18,0.57,1.04,3*0A

$GNGLL,2809.41093,S,15319.68768,E,050056.30,A,A*6B

$GNRMC,050056.40,A,2809.41093,S,15319.68768,E,0.040,,280221,,,A,V*00

$GNVTG,,T,,M,0.040,N,0.075,K,A*3B

$GNGGA,050056.40,2809.41093,S,15319.68768,E,1,12,0.57,143.7,M,36.9,M,,*55

$GNGSA,A,3,20,08,31,23,32,21,27,10,,,,,1.18,0.57,1.04,1*01

$GNGSA,A,3,85,79,69,70,83,84,,,,,,,1.18,0.57,1.04,2*01

$GNGSA,A,3,19,12,04,09,11,,,,,,,,1.18,0.57,1.04,3*0A

$GNGLL,2809.41093,S,15319.68768,E,050056.40,A,A*6C

$GNRMC,050056.50,A,2809.41093,S,15319.68768,E,0.023,,280221,,,A,V*04

$GNVTG,,T,,M,0.023,N,0.043,K,A*3B

$GNGGA,050056.50,2809.41093,S,15319.68768,E,1,12,0.57,143.7,M,36.9,M,,*54

$GNGSA,A,3,20,08,31,23,32,21,27,10,,,,,1.18,0.57,1.04,1*01

$GNGSA,A,3,85,79,69,70,83,84,,,,,,,1.18,0.57,1.04,2*01

$GNGSA,A,3,19,12,04,09,11,,,,,,,,1.18,0.57,1.04,3*0A

$GNGLL,2809.41093,S,15319.68768,E,050056.50,A,A*6D

$GNRMC,050056.60,A,2809.41093,S,15319.68768,E,0.061,,280221,,,A,V*01

$GNVTG,,T,,M,0.061,N,0.113,K,A*39

$GNGGA,050056.60,2809.41093,S,15319.68768,E,1,12,0.57,143.7,M,36.9,M,,*57

$GNGSA,A,3,20,08,31,23,32,21,27,10,,,,,1.18,0.57,1.04,1*01

$GNGSA,A,3,85,79,69,70,83,84,,,,,,,1.18,0.57,1.04,2*01

$GNGSA,A,3,19,12,04,09,11,,,,,,,,1.18,0.57,1.04,3*0A

$GNGLL,2809.41093,S,15319.68768,E,050056.60,A,A*6E

$GNRMC,050056.70,A,2809.41093,S,15319.68767,E,0.029,,280221,,,A,V*03

$GNVTG,,T,,M,0.029,N,0.054,K,A*37

$GNGGA,050056.70,2809.41093,S,15319.68767,E,1,12,0.57,143.7,M,36.9,M,,*59

$GNGSA,A,3,20,08,31,23,32,21,27,10,,,,,1.18,0.57,1.04,1*01

$GNGSA,A,3,85,79,69,70,83,84,,,,,,,1.18,0.57,1.04,2*01

$GNGSA,A,3,19,12,04,09,11,,,,,,,,1.18,0.57,1.04,3*0A

$GNGLL,2809.41093,S,15319.68767,E,050056.70,A,A*60

$GNRMC,050056.80,A,2809.41093,S,15319.68767,E,0.030,,280221,,,A,V*04

$GNVTG,,T,,M,0.030,N,0.055,K,A*3E

$GNGGA,050056.80,2809.41093,S,15319.68767,E,1,12,0.57,143.7,M,36.9,M,,*56

$GNGSA,A,3,20,08,31,23,32,21,27,10,,,,,1.18,0.57,1.04,1*01

$GNGSA,A,3,85,79,69,70,83,84,,,,,,,1.18,0.57,1.04,2*01

$GNGSA,A,3,19,12,04,09,11,,,,,,,,1.18,0.57,1.04,3*0A

$GNGLL,2809.41093,S,15319.68767,E,050056.80,A,A*6F

$GNRMC,050056.90,A,2809.41093,S,15319.68767,E,0.011,,280221,,,A,V*06

$GNVTG,,T,,M,0.011,N,0.020,K,A*3F

$GNGGA,050056.90,2809.41093,S,15319.68767,E,1,12,0.57,143.7,M,36.9,M,,*57

$GNGSA,A,3,20,08,31,23,32,21,27,10,,,,,1.18,0.57,1.04,1*01

$GNGSA,A,3,85,79,69,70,83,84,,,,,,,1.18,0.57,1.04,2*01

$GNGSA,A,3,19,12,04,09,11,,,,,,,,1.18,0.57,1.04,3*0A

$GNGLL,2809.41093,S,15319.68767,E,050056.90,A,A*6E

$GNRMC,050057.00,A,2809.41093,S,15319.68766,E,0.014,,280221,,,A,V*0A

$GNVTG,,T,,M,0.014,N,0.025,K,A*3F

$GNGGA,050057.00,2809.41093,S,15319.68766,E,1,12,0.57,143.7,M,36.9,M,,*5E

$GNGSA,A,3,20,08,31,23,32,21,27,10,,,,,1.18,0.57,1.04,1*01

$GNGSA,A,3,85,79,69,70,83,84,,,,,,,1.18,0.57,1.04,2*01

$GNGSA,A,3,19,12,04,09,11,,,,,,,,1.18,0.57,1.04,3*0A

$GNGLL,2809.41093,S,15319.68766,E,050057.00,A,A*67

$GNRMC,050057.10,A,2809.41093,S,15319.68766,E,0.023,,280221,,,A,V*0F

$GNVTG,,T,,M,0.023,N,0.043,K,A*3B

$GNGGA,050057.10,2809.41093,S,15319.68766,E,1,12,0.57,143.8,M,36.9,M,,*50

$GNGSA,A,3,20,08,31,23,32,21,27,10,,,,,1.18,0.57,1.04,1*01

$GNGSA,A,3,85,79,69,70,83,84,,,,,,,1.18,0.57,1.04,2*01

$GNGSA,A,3,19,12,04,09,11,,,,,,,,1.18,0.57,1.04,3*0A

$GNGLL,2809.41093,S,15319.68766,E,050057.10,A,A*66

$GNRMC,050057.20,A,2809.41093,S,15319.68766,E,0.046,,280221,,,A,V*0F

$GNVTG,,T,,M,0.046,N,0.086,K,A*31

$GNGGA,050057.20,2809.41093,S,15319.68766,E,1,12,0.57,143.8,M,36.9,M,,*53

$GNGSA,A,3,20,08,31,23,32,21,27,10,,,,,1.18,0.57,1.04,1*01

$GNGSA,A,3,85,79,69,70,83,84,,,,,,,1.18,0.57,1.04,2*01

$GNGSA,A,3,19,12,04,09,11,,,,,,,,1.18,0.57,1.04,3*0A

$GNGLL,2809.41093,S,15319.68766,E,050057.20,A,A*65

$GNRMC,050057.30,A,2809.41093,S,15319.68765,E,0.021,,280221,,,A,V*0C

$GNVTG,,T,,M,0.021,N,0.039,K,A*34

$GNGGA,050057.30,2809.41093,S,15319.68765,E,1,12,0.57,143.8,M,36.9,M,,*51

$GNGSA,A,3,20,08,31,23,32,21,27,10,,,,,1.18,0.57,1.04,1*01

$GNGSA,A,3,85,79,69,70,83,84,,,,,,,1.18,0.57,1.04,2*01

$GNGSA,A,3,19,12,04,09,11,,,,,,,,1.18,0.57,1.04,3*0A

$GNGLL,2809.41093,S,15319.68765,E,050057.30,A,A*67

$GNRMC,050057.40,A,2809.41093,S,15319.68765,E,0.024,,280221,,,A,V*0E

$GNVTG,,T,,M,0.024,N,0.044,K,A*3B

$GNGGA,050057.40,2809.41093,S,15319.68765,E,1,12,0.57,143.8,M,36.9,M,,*56

$GNGSA,A,3,20,08,31,23,32,21,27,10,,,,,1.18,0.57,1.04,1*01

$GNGSA,A,3,85,79,69,70,83,84,,,,,,,1.18,0.57,1.04,2*01

$GNGSA,A,3,19,12,04,09,11,,,,,,,,1.18,0.57,1.04,3*0A

$GNGLL,2809.41093,S,15319.68765,E,050057.40,A,A*60

$GNRMC,050057.50,A,2809.41094,S,15319.68765,E,0.038,,280221,,,A,V*05

$GNVTG,,T,,M,0.038,N,0.070,K,A*31

$GNGGA,050057.50,2809.41094,S,15319.68765,E,1,12,0.57,143.8,M,36.9,M,,*50

$GNGSA,A,3,20,08,31,23,32,21,27,10,,,,,1.18,0.57,1.04,1*01

$GNGSA,A,3,85,79,69,70,83,84,,,,,,,1.18,0.57,1.04,2*01

$GNGSA,A,3,19,12,04,09,11,,,,,,,,1.18,0.57,1.04,3*0A

$GNGLL,2809.41094,S,15319.68765,E,050057.50,A,A*66

$GNRMC,050057.60,A,2809.41094,S,15319.68764,E,0.055,,280221,,,A,V*0C

$GNVTG,,T,,M,0.055,N,0.102,K,A*3E

$GNGGA,050057.60,2809.41094,S,15319.68764,E,1,12,0.57,143.8,M,36.9,M,,*52

$GNGSA,A,3,20,08,31,23,32,21,27,10,,,,,1.18,0.57,1.04,1*01

$GNGSA,A,3,85,79,69,70,83,84,,,,,,,1.18,0.57,1.04,2*01

$GNGSA,A,3,19,12,04,09,11,,,,,,,,1.18,0.57,1.04,3*0A

$GNGLL,2809.41094,S,15319.68764,E,050057.60,A,A*64

$GNRMC,050057.70,A,2809.41094,S,15319.68764,E,0.018,,280221,,,A,V*04

$GNVTG,,T,,M,0.018,N,0.033,K,A*34

$GNGGA,050057.70,2809.41094,S,15319.68764,E,1,12,0.57,143.8,M,36.9,M,,*53

$GNGSA,A,3,20,08,31,23,32,21,27,10,,,,,1.18,0.57,1.04,1*01

$GNGSA,A,3,85,79,69,70,83,84,,,,,,,1.18,0.57,1.04,2*01

$GNGSA,A,3,19,12,04,09,11,,,,,,,,1.18,0.57,1.04,3*0A

$GNGLL,2809.41094,S,15319.68764,E,050057.70,A,A*65

$GNRMC,050057.80,A,2809.41094,S,15319.68764,E,0.025,,280221,,,A,V*05

$GNVTG,,T,,M,0.025,N,0.047,K,A*39

$GNGGA,050057.80,2809.41094,S,15319.68764,E,1,12,0.57,143.8,M,36.9,M,,*5C

$GNGSA,A,3,20,08,31,23,32,21,27,10,,,,,1.18,0.57,1.04,1*01

$GNGSA,A,3,85,79,69,70,83,84,,,,,,,1.18,0.57,1.04,2*01

$GNGSA,A,3,19,12,04,09,11,,,,,,,,1.18,0.57,1.04,3*0A

$GNGLL,2809.41094,S,15319.68764,E,050057.80,A,A*6A

$GNRMC,050057.90,A,2809.41094,S,15319.68764,E,0.020,,280221,,,A,V*01

$GNVTG,,T,,M,0.020,N,0.036,K,A*3A

$GNGGA,050057.90,2809.41094,S,15319.68764,E,1,12,0.57,143.8,M,36.9,M,,*5D

$GNGSA,A,3,20,08,31,23,32,21,27,10,,,,,1.18,0.57,1.04,1*01

$GNGSA,A,3,85,79,69,70,83,84,,,,,,,1.18,0.57,1.04,2*01

$GNGSA,A,3,19,12,04,09,11,,,,,,,,1.18,0.57,1.04,3*0A

$GNGLL,2809.41094,S,15319.68764,E,050057.90,A,A*6B

$GNRMC,050058.00,A,2809.41094,S,15319.68763,E,0.023,,280221,,,A,V*03

$GNVTG,,T,,M,0.023,N,0.042,K,A*3A

$GNGGA,050058.00,2809.41094,S,15319.68763,E,1,12,0.57,143.8,M,36.9,M,,*5C

$GNGSA,A,3,20,08,31,23,32,21,27,10,,,,,1.18,0.57,1.04,1*01

$GNGSA,A,3,85,79,69,70,83,84,,,,,,,1.18,0.57,1.04,2*01

$GNGSA,A,3,19,12,04,09,11,,,,,,,,1.18,0.57,1.04,3*0A

$GNGLL,2809.41094,S,15319.68763,E,050058.00,A,A*6A

$GNRMC,050058.10,A,2809.41094,S,15319.68763,E,0.026,,280221,,,A,V*07

$GNVTG,,T,,M,0.026,N,0.049,K,A*34

$GNGGA,050058.10,2809.41094,S,15319.68763,E,1,12,0.57,143.8,M,36.9,M,,*5D

$GNGSA,A,3,20,08,31,23,32,21,27,10,,,,,1.18,0.57,1.04,1*01

$GNGSA,A,3,85,79,69,70,83,84,,,,,,,1.18,0.57,1.04,2*01

$GNGSA,A,3,19,12,04,09,11,,,,,,,,1.18,0.57,1.04,3*0A

$GNGLL,2809.41094,S,15319.68763,E,050058.10,A,A*6B

$GNRMC,050058.20,A,2809.41094,S,15319.68763,E,0.032,,280221,,,A,V*01

$GNVTG,,T,,M,0.032,N,0.060,K,A*3A

$GNGGA,050058.20,2809.41094,S,15319.68763,E,1,12,0.57,143.8,M,36.9,M,,*5E

$GNGSA,A,3,20,08,31,23,32,21,27,10,,,,,1.18,0.57,1.04,1*01

$GNGSA,A,3,85,79,69,70,83,84,,,,,,,1.18,0.57,1.04,2*01

$GNGSA,A,3,19,12,04,09,11,,,,,,,,1.18,0.57,1.04,3*0A

$GNGLL,2809.41094,S,15319.68763,E,050058.20,A,A*68

$GNRMC,050058.30,A,2809.41094,S,15319.68762,E,0.022,,280221,,,A,V*00

$GNVTG,,T,,M,0.022,N,0.041,K,A*38

$GNGGA,050058.30,2809.41094,S,15319.68762,E,1,12,0.57,143.8,M,36.9,M,,*5E

$GNGSA,A,3,20,08,31,23,32,21,27,10,,,,,1.18,0.57,1.04,1*01

$GNGSA,A,3,85,79,69,70,83,84,,,,,,,1.18,0.57,1.04,2*01

$GNGSA,A,3,19,12,04,09,11,,,,,,,,1.18,0.57,1.04,3*0A

$GNGLL,2809.41094,S,15319.68762,E,050058.30,A,A*68

$GNRMC,050058.40,A,2809.41094,S,15319.68762,E,0.001,,280221,,,A,V*06

$GNVTG,,T,,M,0.001,N,0.002,K,A*3E

$GNGGA,050058.40,2809.41094,S,15319.68762,E,1,12,0.57,143.8,M,36.9,M,,*59

$GNGSA,A,3,20,08,31,23,32,21,27,10,,,,,1.18,0.57,1.04,1*01

$GNGSA,A,3,85,79,69,70,83,84,,,,,,,1.18,0.57,1.04,2*01

$GNGSA,A,3,19,12,04,09,11,,,,,,,,1.18,0.57,1.04,3*0A

$GNGLL,2809.41094,S,15319.68762,E,050058.40,A,A*6F

$GNRMC,050058.50,A,2809.41094,S,15319.68762,E,0.004,,280221,,,A,V*02

$GNVTG,,T,,M,0.004,N,0.007,K,A*3E

$GNGGA,050058.50,2809.41094,S,15319.68762,E,1,12,0.57,143.8,M,36.9,M,,*58

$GNGSA,A,3,20,08,31,23,32,21,27,10,,,,,1.18,0.57,1.04,1*01

$GNGSA,A,3,85,79,69,70,83,84,,,,,,,1.18,0.57,1.04,2*01

$GNGSA,A,3,19,12,04,09,11,,,,,,,,1.18,0.57,1.04,3*0A

$GNGLL,2809.41094,S,15319.68762,E,050058.50,A,A*6E

$GNRMC,050058.60,A,2809.41094,S,15319.68762,E,0.006,,280221,,,A,V*03

$GNVTG,,T,,M,0.006,N,0.011,K,A*3B

$GNGGA,050058.60,2809.41094,S,15319.68762,E,1,12,0.57,143.8,M,36.9,M,,*5B

$GNGSA,A,3,20,08,31,23,32,21,27,10,,,,,1.18,0.57,1.04,1*01

$GNGSA,A,3,85,79,69,70,83,84,,,,,,,1.18,0.57,1.04,2*01

$GNGSA,A,3,19,12,04,09,11,,,,,,,,1.18,0.57,1.04,3*0A

$GNGLL,2809.41094,S,15319.68762,E,050058.60,A,A*6D

